====================================================================================================
MERGED UBX LOG - Mavic 4 Pro
Source files:
  1. Y:\Git_projects\ublox_gnss_emulator\ublox_fake_rust\logs_analiser\mavic4_settimgs_decoder--251229-151141.txt
  2. Y:\Git_projects\ublox_gnss_emulator\ublox_fake_rust\logs_analiser\mavic4_ansdrone_decoder--251229-151141.txt
Total messages: 1801
====================================================================================================

[   1]     1958.069 ms | MON-VER         | Len=   0 | mavic4_settimgs_decoder--251229-151141.txt
       B5 62 0A 04 00 00 0E 34

[   2]     1990.979 ms | MON-VER         | Len= 160 | mavic4_ansdrone_decoder--251229-151141.txt
       B5 62 0A 04 A0 00 52 4F 4D 20 53 50 47 20 35 2E 31 30 20 28 37 62 32 30 32 65 29 00 00 00 00 00 00 00 00 00 30 30 30 41 30 30 30 30 00 00 46 57 
       56 45 52 3D 53 50 47 20 35 2E 31 30 00 00 00 00 00 00 00 00 00 00 00 00 00 00 00 00 50 52 4F 54 56 45 52 3D 33 34 2E 31 30 00 00 00 00 00 00 00 
       00 00 00 00 00 00 00 00 00 00 47 50 53 3B 47 4C 4F 3B 47 41 4C 3B 42 44 53 00 00 00 00 00 00 00 00 00 00 00 00 00 00 00 53 42 41 53 3B 51 5A 53 
       53 00 00 00 00 00 00 00 00 00 00 00 00 00 00 00 00 00 00 00 00 00 F7 14

[   3]     1998.038 ms | SEC-UNIQID      | Len=   0 | mavic4_settimgs_decoder--251229-151141.txt
       B5 62 27 03 00 00 2A A5

[   4]     1998.394 ms | SEC-UNIQID      | Len=  10 | mavic4_ansdrone_decoder--251229-151141.txt
       B5 62 27 03 0A 00 02 00 00 00 EB B9 91 0F 2B 54 F9 0F

[   5]     2003.197 ms | CFG-0x41        | Len=   0 | mavic4_settimgs_decoder--251229-151141.txt
       B5 62 06 41 00 00 47 DB

[   6]     2003.577 ms | CFG-0x41        | Len= 256 | mavic4_ansdrone_decoder--251229-151141.txt
       B5 62 06 41 00 01 C4 90 F3 FF AE FF FE FF F7 FF 9F FF FF F7 BF FF EF FF FD FF FF FF FF FF 00 00 82 18 B0 00 00 00 F0 A0 F7 F7 00 22 42 60 C0 F8 
       BC 10 4F F4 00 31 C1 67 70 47 00 00 83 28 8C 16 00 00 F1 A0 F7 F7 23 F4 40 03 8E 68 46 F4 40 06 C1 F8 BC 20 8E 60 CE 68 C1 F8 BC 20 46 F4 C0 06 
       CE 60 70 47 00 00 A4 0F 0F 00 31 10 00 0D 00 31 10 01 22 00 31 10 01 A4 3A 02 00 C7 10 01 03 00 C7 20 1E 04 00 C7 50 6A FD DD D2 50 21 EB B3 05 
       00 C7 50 1D EB ED 47 60 44 12 42 06 00 C7 50 6A C4 43 75 06 5A 7A FD 07 00 C7 50 41 77 D2 E9 A1 F0 00 00 A6 18 90 89 A2 18 14 A6 2F C3 3A F5 D6 
       EB 61 16 1C E1 86 36 F5 48 D0 71 D6 9F A4 08 01 00 52 40 00 10 0E 00 A4 20 01 00 A4 40 00 B0 71 0B 03 00 A4 40 00 B0 71 0B 05 00 A4 40 00 B0 71 
       0B 0A 00 A4 40 00 D8 B8 05 FF FF FF FF FF FF FF FF FF FF FF FF FF BA 4A

[   7]     2006.441 ms | ACK-ACK         | Len=   2 | mavic4_ansdrone_decoder--251229-151141.txt
       B5 62 05 01 02 00 06 41 4F 78

[   8]     2015.239 ms | CFG-VALGET      | Len=   8 | mavic4_settimgs_decoder--251229-151141.txt
       B5 62 06 8B 08 00 00 04 00 00 01 00 52 40 30 95

[   9]     2016.888 ms | CFG-VALGET      | Len=  12 | mavic4_ansdrone_decoder--251229-151141.txt
       B5 62 06 8B 0C 00 01 04 00 00 01 00 52 40 00 10 0E 00 53 E5

[  10]     2017.105 ms | ACK-ACK         | Len=   2 | mavic4_ansdrone_decoder--251229-151141.txt
       B5 62 05 01 02 00 06 8B 99 C2

[  11]     2023.087 ms | CFG-VALGET      | Len=   8 | mavic4_settimgs_decoder--251229-151141.txt
       B5 62 06 8B 08 00 00 04 00 00 01 00 A4 40 82 39

[  12]     2024.967 ms | CFG-VALGET      | Len=  12 | mavic4_ansdrone_decoder--251229-151141.txt
       B5 62 06 8B 0C 00 01 04 00 00 01 00 A4 40 00 B0 71 0B B3 82

[  13]     2025.184 ms | ACK-ACK         | Len=   2 | mavic4_ansdrone_decoder--251229-151141.txt
       B5 62 05 01 02 00 06 8B 99 C2

[  14]     2033.059 ms | CFG-VALSET      | Len=  44 | mavic4_settimgs_decoder--251229-151141.txt
       B5 62 06 8A 2C 00 00 03 00 00 1F 00 31 10 01 24 00 31 10 01 21 00 31 10 01 22 00 31 10 01 0D 00 31 10 01 0F 00 31 10 00 25 00 31 10 00 18 00 31 
       10 00 AB 48

[  15]     2033.679 ms | CFG-VALSET      | Len=   9 | mavic4_settimgs_decoder--251229-151141.txt
       B5 62 06 8A 09 00 00 03 00 00 02 00 74 10 00 22 C7

[  16]     2034.386 ms | ACK-ACK         | Len=   2 | mavic4_ansdrone_decoder--251229-151141.txt
       B5 62 05 01 02 00 06 8A 98 C1

[  17]     2034.495 ms | ACK-ACK         | Len=   2 | mavic4_ansdrone_decoder--251229-151141.txt
       B5 62 05 01 02 00 06 8A 98 C1

[  18]     2043.065 ms | CFG-VALSET      | Len=   9 | mavic4_settimgs_decoder--251229-151141.txt
       B5 62 06 8A 09 00 00 03 00 00 01 00 04 10 00 B1 72

[  19]     2043.733 ms | ACK-ACK         | Len=   2 | mavic4_ansdrone_decoder--251229-151141.txt
       B5 62 05 01 02 00 06 8A 98 C1

[  20]     2053.054 ms | CFG-VALSET      | Len=   9 | mavic4_settimgs_decoder--251229-151141.txt
       B5 62 06 8A 09 00 00 03 00 00 02 00 92 20 03 53 44

[  21]     2053.723 ms | ACK-ACK         | Len=   2 | mavic4_ansdrone_decoder--251229-151141.txt
       B5 62 05 01 02 00 06 8A 98 C1

[  22]     2063.065 ms | CFG-VALSET      | Len=   9 | mavic4_settimgs_decoder--251229-151141.txt
       B5 62 06 8A 09 00 00 03 00 00 4B 03 91 20 02 9D B9

[  23]     2063.735 ms | ACK-ACK         | Len=   2 | mavic4_ansdrone_decoder--251229-151141.txt
       B5 62 05 01 02 00 06 8A 98 C1

[  24]     2073.074 ms | CFG-VALSET      | Len=   9 | mavic4_settimgs_decoder--251229-151141.txt
       B5 62 06 8A 09 00 00 03 00 00 7E 01 91 20 01 CD AF

[  25]     2073.743 ms | ACK-ACK         | Len=   2 | mavic4_ansdrone_decoder--251229-151141.txt
       B5 62 05 01 02 00 06 8A 98 C1

[  26]     2083.066 ms | CFG-VALSET      | Len=   9 | mavic4_settimgs_decoder--251229-151141.txt
       B5 62 06 8A 09 00 00 03 00 00 7A 00 91 20 01 C8 97

[  27]     2083.736 ms | ACK-ACK         | Len=   2 | mavic4_ansdrone_decoder--251229-151141.txt
       B5 62 05 01 02 00 06 8A 98 C1

[  28]     2093.054 ms | CFG-VALSET      | Len=   9 | mavic4_settimgs_decoder--251229-151141.txt
       B5 62 06 8A 09 00 00 03 00 00 2A 00 91 20 01 78 07

[  29]     2093.754 ms | ACK-ACK         | Len=   2 | mavic4_ansdrone_decoder--251229-151141.txt
       B5 62 05 01 02 00 06 8A 98 C1

[  30]     2103.066 ms | CFG-VALSET      | Len=   9 | mavic4_settimgs_decoder--251229-151141.txt
       B5 62 06 8A 09 00 00 03 00 00 25 00 91 20 00 72 ED

[  31]     2103.736 ms | ACK-ACK         | Len=   2 | mavic4_ansdrone_decoder--251229-151141.txt
       B5 62 05 01 02 00 06 8A 98 C1

[  32]     2113.059 ms | CFG-VALSET      | Len=   9 | mavic4_settimgs_decoder--251229-151141.txt
       B5 62 06 8A 09 00 00 03 00 00 1B 00 91 20 01 69 BC

[  33]     2113.729 ms | ACK-ACK         | Len=   2 | mavic4_ansdrone_decoder--251229-151141.txt
       B5 62 05 01 02 00 06 8A 98 C1

[  34]     2123.088 ms | CFG-VALSET      | Len=   9 | mavic4_settimgs_decoder--251229-151141.txt
       B5 62 06 8A 09 00 00 03 00 00 39 00 91 20 01 87 52

[  35]     2123.775 ms | ACK-ACK         | Len=   2 | mavic4_ansdrone_decoder--251229-151141.txt
       B5 62 05 01 02 00 06 8A 98 C1

[  36]     2133.058 ms | CFG-VALSET      | Len=   9 | mavic4_settimgs_decoder--251229-151141.txt
       B5 62 06 8A 09 00 00 03 00 00 07 00 91 20 01 55 58

[  37]     2133.729 ms | ACK-ACK         | Len=   2 | mavic4_ansdrone_decoder--251229-151141.txt
       B5 62 05 01 02 00 06 8A 98 C1

[  38]     2143.069 ms | CFG-VALSET      | Len=   9 | mavic4_settimgs_decoder--251229-151141.txt
       B5 62 06 8A 09 00 00 03 00 00 43 00 91 20 01 91 84

[  39]     2143.741 ms | ACK-ACK         | Len=   2 | mavic4_ansdrone_decoder--251229-151141.txt
       B5 62 05 01 02 00 06 8A 98 C1

[  40]     2153.058 ms | CFG-VALSET      | Len=   9 | mavic4_settimgs_decoder--251229-151141.txt
       B5 62 06 8A 09 00 00 03 00 00 48 00 91 20 01 96 9D

[  41]     2153.733 ms | ACK-ACK         | Len=   2 | mavic4_ansdrone_decoder--251229-151141.txt
       B5 62 05 01 02 00 06 8A 98 C1

[  42]     2163.069 ms | CFG-VALSET      | Len=   9 | mavic4_settimgs_decoder--251229-151141.txt
       B5 62 06 8A 09 00 00 03 00 00 5C 00 91 20 01 AA 01

[  43]     2163.741 ms | ACK-ACK         | Len=   2 | mavic4_ansdrone_decoder--251229-151141.txt
       B5 62 05 01 02 00 06 8A 98 C1

[  44]     2173.077 ms | CFG-VALSET      | Len=   9 | mavic4_settimgs_decoder--251229-151141.txt
       B5 62 06 8A 09 00 00 03 00 00 66 00 91 20 01 B4 33

[  45]     2174.034 ms | ACK-ACK         | Len=   2 | mavic4_ansdrone_decoder--251229-151141.txt
       B5 62 05 01 02 00 06 8A 98 C1

[  46]     2183.069 ms | CFG-VALSET      | Len=   9 | mavic4_settimgs_decoder--251229-151141.txt
       B5 62 06 8A 09 00 00 03 00 00 16 00 91 20 01 64 A3

[  47]     2183.757 ms | ACK-ACK         | Len=   2 | mavic4_ansdrone_decoder--251229-151141.txt
       B5 62 05 01 02 00 06 8A 98 C1

[  48]     2193.058 ms | CFG-VALSET      | Len=   9 | mavic4_settimgs_decoder--251229-151141.txt
       B5 62 06 8A 09 00 00 03 00 00 5A 03 91 20 01 AB 03

[  49]     2193.732 ms | ACK-ACK         | Len=   2 | mavic4_ansdrone_decoder--251229-151141.txt
       B5 62 05 01 02 00 06 8A 98 C1

[  50]     2203.073 ms | CFG-VALSET      | Len=  12 | mavic4_settimgs_decoder--251229-151141.txt
       B5 62 06 8A 0C 00 00 03 00 00 04 00 05 40 A0 86 01 00 0F D1

[  51]     2203.750 ms | ACK-ACK         | Len=   2 | mavic4_ansdrone_decoder--251229-151141.txt
       B5 62 05 01 02 00 06 8A 98 C1

[  52]     2213.062 ms | CFG-VALSET      | Len=   9 | mavic4_settimgs_decoder--251229-151141.txt
       B5 62 06 8A 09 00 00 03 00 00 0C 00 05 20 01 CE CD

[  53]     2213.769 ms | ACK-ACK         | Len=   2 | mavic4_ansdrone_decoder--251229-151141.txt
       B5 62 05 01 02 00 06 8A 98 C1

[  54]     2223.122 ms | CFG-VALSET      | Len=   9 | mavic4_settimgs_decoder--251229-151141.txt
       B5 62 06 8A 09 00 00 03 00 00 0D 00 41 10 01 FB 66

[  55]     2223.796 ms | ACK-ACK         | Len=   2 | mavic4_ansdrone_decoder--251229-151141.txt
       B5 62 05 01 02 00 06 8A 98 C1

[  56]     2233.061 ms | CFG-VALSET      | Len=   9 | mavic4_settimgs_decoder--251229-151141.txt
       B5 62 06 8A 09 00 00 03 00 00 21 00 11 20 07 F5 60

[  57]     2233.737 ms | ACK-ACK         | Len=   2 | mavic4_ansdrone_decoder--251229-151141.txt
       B5 62 05 01 02 00 06 8A 98 C1

[  58]     2243.072 ms | CFG-VALSET      | Len=   9 | mavic4_settimgs_decoder--251229-151141.txt
       B5 62 06 8A 09 00 00 03 00 00 25 00 11 10 01 E3 4E

[  59]     2244.408 ms | ACK-ACK         | Len=   2 | mavic4_ansdrone_decoder--251229-151141.txt
       B5 62 05 01 02 00 06 8A 98 C1

[  60]     2253.061 ms | CFG-VALSET      | Len=   9 | mavic4_settimgs_decoder--251229-151141.txt
       B5 62 06 8A 09 00 00 03 00 00 13 00 11 10 01 D1 F4

[  61]     2253.753 ms | ACK-ACK         | Len=   2 | mavic4_ansdrone_decoder--251229-151141.txt
       B5 62 05 01 02 00 06 8A 98 C1

[  62]     2263.072 ms | CFG-VALSET      | Len=   9 | mavic4_settimgs_decoder--251229-151141.txt
       B5 62 06 8A 09 00 00 03 00 00 D6 00 11 20 00 A3 E2

[  63]     2263.749 ms | ACK-ACK         | Len=   2 | mavic4_ansdrone_decoder--251229-151141.txt
       B5 62 05 01 02 00 06 8A 98 C1

[  64]     2273.081 ms | CFG-VALSET      | Len=   9 | mavic4_settimgs_decoder--251229-151141.txt
       B5 62 06 8A 09 00 00 03 00 00 A3 00 11 20 19 89 FC

[  65]     2273.759 ms | ACK-ACK         | Len=   2 | mavic4_ansdrone_decoder--251229-151141.txt
       B5 62 05 01 02 00 06 8A 98 C1

[  66]     2283.073 ms | CFG-VALSET      | Len=  10 | mavic4_settimgs_decoder--251229-151141.txt
       B5 62 06 8A 0A 00 00 03 00 00 01 00 21 30 C8 00 B7 93

[  67]     2283.754 ms | ACK-ACK         | Len=   2 | mavic4_ansdrone_decoder--251229-151141.txt
       B5 62 05 01 02 00 06 8A 98 C1

[  68]     2293.062 ms | CFG-VALSET      | Len=  10 | mavic4_settimgs_decoder--251229-151141.txt
       B5 62 06 8A 0A 00 00 03 00 00 02 00 21 30 01 00 F1 0B

[  69]     2293.780 ms | ACK-ACK         | Len=   2 | mavic4_ansdrone_decoder--251229-151141.txt
       B5 62 05 01 02 00 06 8A 98 C1

[  70]     2303.072 ms | CFG-VALSET      | Len=   9 | mavic4_settimgs_decoder--251229-151141.txt
       B5 62 06 8A 09 00 00 03 00 00 03 00 21 20 00 E0 F3

[  71]     2303.755 ms | ACK-ACK         | Len=   2 | mavic4_ansdrone_decoder--251229-151141.txt
       B5 62 05 01 02 00 06 8A 98 C1

[  72]     2313.066 ms | CFG-VALSET      | Len=   9 | mavic4_settimgs_decoder--251229-151141.txt
       B5 62 06 8A 09 00 00 03 00 00 20 00 31 10 00 FD 94

[  73]     2321.721 ms | ACK-ACK         | Len=   2 | mavic4_ansdrone_decoder--251229-151141.txt
       B5 62 05 01 02 00 06 8A 98 C1

[  74]     2328.052 ms | CFG-VALSET      | Len=   9 | mavic4_settimgs_decoder--251229-151141.txt
       B5 62 06 8A 09 00 00 03 00 00 A5 02 91 20 01 F5 76

[  75]     2329.022 ms | ACK-ACK         | Len=   2 | mavic4_ansdrone_decoder--251229-151141.txt
       B5 62 05 01 02 00 06 8A 98 C1

[  76]     2338.057 ms | CFG-VALSET      | Len=   9 | mavic4_settimgs_decoder--251229-151141.txt
       B5 62 06 8A 09 00 00 03 00 00 32 02 91 20 01 82 37

[  77]     2338.744 ms | ACK-ACK         | Len=   2 | mavic4_ansdrone_decoder--251229-151141.txt
       B5 62 05 01 02 00 06 8A 98 C1

[  78]     2348.042 ms | CFG-VALGET      | Len=   8 | mavic4_settimgs_decoder--251229-151141.txt
       B5 62 06 8B 08 00 00 00 00 00 01 00 C7 10 71 33

[  79]     2350.180 ms | CFG-VALGET      | Len=   9 | mavic4_ansdrone_decoder--251229-151141.txt
       B5 62 06 8B 09 00 01 00 00 00 01 00 C7 10 00 73 B8

[  80]     2350.365 ms | ACK-ACK         | Len=   2 | mavic4_ansdrone_decoder--251229-151141.txt
       B5 62 05 01 02 00 06 8B 99 C2

[  81]     2356.822 ms | NAV-PVT         | Len=  92 | mavic4_ansdrone_decoder--251229-151141.txt
       B5 62 01 07 5C 00 00 00 00 00 E5 07 03 07 00 00 00 F0 FF FF FF FF 00 00 00 00 00 00 24 00 00 00 00 00 00 00 00 00 00 00 00 00 98 BD FF FF FF FF 
       FF FF 00 76 84 DF 00 00 00 00 00 00 00 00 00 00 00 00 00 00 00 00 00 00 00 00 58 3E 0F 00 80 A8 12 01 0F 27 00 00 5C 40 56 2F 00 00 00 00 00 00 
       00 00 C9 2D

[  82]     2358.297 ms | NAV-VELNED      | Len=  36 | mavic4_ansdrone_decoder--251229-151141.txt
       B5 62 01 12 24 00 00 00 00 00 00 00 00 00 00 00 00 00 00 00 00 00 00 00 00 00 00 00 00 00 00 00 00 00 3C 86 01 00 80 A8 12 01 35 EB

[  83]     2358.774 ms | NAV-SAT         | Len=   8 | mavic4_ansdrone_decoder--251229-151141.txt
       B5 62 01 35 08 00 00 00 00 00 01 00 00 00 3F A7

[  84]     2358.948 ms | NAV-STATUS      | Len=  16 | mavic4_ansdrone_decoder--251229-151141.txt
       B5 62 01 03 10 00 00 00 00 00 00 40 00 08 00 00 00 00 14 00 00 00 70 C5

[  85]     2359.208 ms | NAV-DOP         | Len=  18 | mavic4_ansdrone_decoder--251229-151141.txt
       B5 62 01 04 12 00 00 00 00 00 0F 27 0F 27 0F 27 0F 27 0F 27 0F 27 0F 27 91 91

[  86]     2359.490 ms | NAV-TIMEGPS     | Len=  16 | mavic4_ansdrone_decoder--251229-151141.txt
       B5 62 01 20 10 00 00 00 00 00 00 00 00 00 00 00 12 00 FF FF FF FF 3F F6

[  87]     2359.751 ms | NAV-TIMEUTC     | Len=  20 | mavic4_ansdrone_decoder--251229-151141.txt
       B5 62 01 21 14 00 00 00 00 00 FF FF FF FF 00 00 00 00 E5 07 03 07 00 00 00 F0 18 0B

[  88]     2360.054 ms | NAV-CLOCK       | Len=  20 | mavic4_ansdrone_decoder--251229-151141.txt
       B5 62 01 22 14 00 00 00 00 00 00 00 00 00 00 00 00 00 FF FF FF FF 7C 36 39 00 1E C8

[  89]     2360.358 ms | NAV-0x60        | Len=  16 | mavic4_ansdrone_decoder--251229-151141.txt
       B5 62 01 60 10 00 00 00 00 00 00 00 00 00 00 00 00 00 00 00 00 00 71 54

[  90]     2360.618 ms | CFG-VALGET      | Len=   9 | mavic4_ansdrone_decoder--251229-151141.txt
       B5 62 06 8B 09 00 01 00 00 00 02 00 C7 10 01 75 BE

[  91]     2360.803 ms | ACK-ACK         | Len=   2 | mavic4_ansdrone_decoder--251229-151141.txt
       B5 62 05 01 02 00 06 8B 99 C2

[  92]     2368.048 ms | CFG-VALGET      | Len=   8 | mavic4_settimgs_decoder--251229-151141.txt
       B5 62 06 8B 08 00 00 00 00 00 03 00 C7 20 83 4B

[  93]     2369.612 ms | CFG-VALGET      | Len=   9 | mavic4_ansdrone_decoder--251229-151141.txt
       B5 62 06 8B 09 00 01 00 00 00 03 00 C7 20 1E A3 00

[  94]     2369.796 ms | ACK-ACK         | Len=   2 | mavic4_ansdrone_decoder--251229-151141.txt
       B5 62 05 01 02 00 06 8B 99 C2

[  95]     2378.046 ms | CFG-VALGET      | Len=   8 | mavic4_settimgs_decoder--251229-151141.txt
       B5 62 06 8B 08 00 00 00 00 00 04 00 C7 50 B4 7F

[  96]     2379.583 ms | CFG-VALGET      | Len=  16 | mavic4_ansdrone_decoder--251229-151141.txt
       B5 62 06 8B 10 00 01 00 00 00 04 00 C7 50 6A FD DD D2 50 21 EB B3 E2 6E

[  97]     2379.843 ms | ACK-ACK         | Len=   2 | mavic4_ansdrone_decoder--251229-151141.txt
       B5 62 05 01 02 00 06 8B 99 C2

[  98]     2388.042 ms | CFG-VALGET      | Len=   8 | mavic4_settimgs_decoder--251229-151141.txt
       B5 62 06 8B 08 00 00 00 00 00 05 00 C7 50 B5 83

[  99]     2389.792 ms | CFG-VALGET      | Len=  16 | mavic4_ansdrone_decoder--251229-151141.txt
       B5 62 06 8B 10 00 01 00 00 00 05 00 C7 50 1D EB ED 47 60 44 12 42 F2 C3

[ 100]     2390.052 ms | ACK-ACK         | Len=   2 | mavic4_ansdrone_decoder--251229-151141.txt
       B5 62 05 01 02 00 06 8B 99 C2

[ 101]     2398.046 ms | CFG-VALGET      | Len=   8 | mavic4_settimgs_decoder--251229-151141.txt
       B5 62 06 8B 08 00 00 00 00 00 06 00 C7 50 B6 87

[ 102]     2399.612 ms | CFG-VALGET      | Len=  16 | mavic4_ansdrone_decoder--251229-151141.txt
       B5 62 06 8B 10 00 01 00 00 00 06 00 C7 50 6A C4 43 75 06 5A 7A FD 7C 75

[ 103]     2399.872 ms | ACK-ACK         | Len=   2 | mavic4_ansdrone_decoder--251229-151141.txt
       B5 62 05 01 02 00 06 8B 99 C2

[ 104]     2408.047 ms | CFG-VALGET      | Len=   8 | mavic4_settimgs_decoder--251229-151141.txt
       B5 62 06 8B 08 00 00 00 00 00 07 00 C7 50 B7 8B

[ 105]     2409.632 ms | CFG-VALGET      | Len=  16 | mavic4_ansdrone_decoder--251229-151141.txt
       B5 62 06 8B 10 00 01 00 00 00 07 00 C7 50 41 77 D2 E9 A1 F0 00 00 C4 F9

[ 106]     2409.892 ms | ACK-ACK         | Len=   2 | mavic4_ansdrone_decoder--251229-151141.txt
       B5 62 05 01 02 00 06 8B 99 C2

[ 107]     2418.060 ms | MGA-0x80        | Len=  84 | mavic4_settimgs_decoder--251229-151141.txt
       B5 62 13 80 54 00 01 00 00 01 19 06 05 05 3B 00 04 00 5C 40 10 05 00 A3 C4 04 40 C1 20 5E 56 A7 FF ED 2E 25 36 75 4B A7 49 00 DF 99 F7 46 57 56 
       15 27 0A A1 24 09 9C C9 0D A1 E4 57 63 00 A5 F9 73 2F B2 FA DE 10 D1 1B E4 57 0F 00 FB FF 00 D6 7E 50 C8 3F 09 00 46 09 0A 00 4C 3E

[ 108]     2436.157 ms | MGA-0x60        | Len=   8 | mavic4_ansdrone_decoder--251229-151141.txt
       B5 62 13 60 08 00 01 00 00 80 01 00 00 11 0E F1

[ 109]     2501.153 ms | MGA-0x60        | Len=   8 | mavic4_ansdrone_decoder--251229-151141.txt
       B5 62 13 60 08 00 01 00 00 80 01 00 03 1A 1A 00

[ 110]     2516.164 ms | MGA-0x60        | Len=   8 | mavic4_ansdrone_decoder--251229-151141.txt
       B5 62 13 60 08 00 01 00 00 80 01 00 03 32 32 18

[ 111]     2541.418 ms | MGA-0x60        | Len=   8 | mavic4_ansdrone_decoder--251229-151141.txt
       B5 62 13 60 08 00 01 00 00 80 02 00 00 15 13 F9

[ 112]     2543.152 ms | MGA-0x80        | Len=  52 | mavic4_settimgs_decoder--251229-151141.txt
       B5 62 13 80 34 00 02 00 00 16 19 09 18 10 2C 1C 00 00 5C 40 10 05 15 4E B0 08 4E 27 20 8D B9 69 5E 0A C9 0C A1 00 4F FD 00 4E 86 AB AA 00 48 8C 
       D5 00 10 C1 5F 00 9E 0F 80 4F 29 7E

[ 113]     2548.637 ms | MGA-0x80        | Len=  52 | mavic4_settimgs_decoder--251229-151141.txt
       B5 62 13 80 34 00 02 00 00 1B 19 09 18 10 2C 1C 00 00 5C 40 10 05 1A 4E B0 48 D3 68 20 DA BD 6E 0C 08 C7 0C A1 00 21 FD 00 4E C9 25 D1 00 1F BF 
       22 00 B6 E6 4C 00 E6 07 00 4F BE D0

[ 114]     2553.461 ms | MGA-0x80        | Len=  52 | mavic4_settimgs_decoder--251229-151141.txt
       B5 62 13 80 34 00 02 00 00 1F 19 09 18 10 2C 1C 00 00 5C 40 10 05 1E 4E B0 08 C3 9D 20 C0 55 58 1C 08 5D 0D A1 00 52 FD 00 4E E6 49 7D 00 20 73 
       23 00 2A 99 AE 00 36 07 00 4F 67 7D

[ 115]     2554.177 ms | MGA-0x80        | Len=  52 | mavic4_settimgs_decoder--251229-151141.txt
       B5 62 13 80 34 00 02 00 00 20 19 09 18 10 2C 1C 00 00 5C 40 10 05 1F 4E B0 08 E5 51 20 D4 EB 46 2B 0F C2 0C A1 00 3A FD 00 4E BB 48 51 00 AE 0B 
       AC 00 09 A0 67 00 A6 26 00 4F BE 59

[ 116]     2554.893 ms | MGA-0x80        | Len=  44 | mavic4_settimgs_decoder--251229-151141.txt
       B5 62 13 80 2C 00 02 00 02 02 19 09 16 0A 27 1C 00 00 5C 40 10 05 48 00 B0 08 3C 51 20 FC 11 A8 3D 34 4F F5 00 00 EE AC 38 FF E3 5B 82 00 F0 0F 
       00 00 A2 E5

[ 117]     2555.514 ms | MGA-0x80        | Len=  44 | mavic4_settimgs_decoder--251229-151141.txt
       B5 62 13 80 2C 00 02 00 02 03 19 09 16 0A 27 1C 00 00 5C 40 10 05 49 00 B0 08 53 32 20 01 1E 08 3E 34 4F C5 00 00 38 57 C3 24 F8 8B 8F FF EF FF 
       FF 00 C3 EF

[ 118]     2561.221 ms | NAV-STATUS      | Len=  16 | mavic4_ansdrone_decoder--251229-151141.txt
       B5 62 01 03 10 00 C8 00 00 00 00 40 00 08 00 00 00 00 DC 00 00 00 00 65

[ 119]     2561.481 ms | NAV-DOP         | Len=  18 | mavic4_ansdrone_decoder--251229-151141.txt
       B5 62 01 04 12 00 C8 00 00 00 0F 27 0F 27 0F 27 0F 27 0F 27 0F 27 0F 27 59 A1

[ 120]     2561.763 ms | NAV-TIMEGPS     | Len=  16 | mavic4_ansdrone_decoder--251229-151141.txt
       B5 62 01 20 10 00 C8 00 00 00 00 00 00 00 00 00 12 00 FF FF FF FF 07 76

[ 121]     2562.023 ms | MGA-0x60        | Len=   8 | mavic4_ansdrone_decoder--251229-151141.txt
       B5 62 13 60 08 00 01 00 00 80 02 00 02 05 05 ED

[ 122]     2562.197 ms | NAV-TIMEUTC     | Len=  20 | mavic4_ansdrone_decoder--251229-151141.txt
       B5 62 01 21 14 00 C8 00 00 00 FF FF FF FF 00 C2 EB 0B E5 07 03 07 00 00 00 F0 98 92

[ 123]     2562.501 ms | NAV-CLOCK       | Len=  20 | mavic4_ansdrone_decoder--251229-151141.txt
       B5 62 01 22 14 00 C8 00 00 00 00 00 00 00 00 00 00 00 FF FF FF FF 7C 36 39 00 E6 68

[ 124]     2562.804 ms | NAV-0x60        | Len=  16 | mavic4_ansdrone_decoder--251229-151141.txt
       B5 62 01 60 10 00 C8 00 00 00 00 00 00 00 00 00 00 00 00 00 00 00 39 D4

[ 125]     2563.065 ms | MGA-0x60        | Len=   8 | mavic4_ansdrone_decoder--251229-151141.txt
       B5 62 13 60 08 00 01 00 00 80 02 00 02 06 06 EE

[ 126]     2586.518 ms | MGA-0x60        | Len=   8 | mavic4_ansdrone_decoder--251229-151141.txt
       B5 62 13 60 08 00 01 00 00 80 02 00 05 07 0A F5

[ 127]     2588.128 ms | MGA-0x80        | Len=  52 | mavic4_settimgs_decoder--251229-151141.txt
       B5 62 13 80 34 00 02 00 05 08 19 09 19 00 2A 1C 00 00 5C 40 10 05 B1 55 B0 48 38 93 20 B0 E5 00 39 00 C3 EB CA 10 4D 00 00 55 B2 20 FD 00 62 52 
       88 00 78 50 C5 00 00 00 00 4F D0 DD

[ 128]     2635.280 ms | MGA-0x60        | Len=   8 | mavic4_ansdrone_decoder--251229-151141.txt
       B5 62 13 60 08 00 01 00 00 80 05 00 02 19 1C 0D

[ 129]     2749.320 ms | RXM-0x15        | Len=  16 | mavic4_ansdrone_decoder--251229-151141.txt
       B5 62 02 15 10 00 9A 99 99 99 99 99 C9 3F 00 00 12 00 00 01 60 03 3C 93

[ 130]     2757.054 ms | NAV-PVT         | Len=  92 | mavic4_ansdrone_decoder--251229-151141.txt
       B5 62 01 07 5C 00 90 01 00 00 E5 07 03 07 00 00 00 F0 FF FF FF FF 00 84 D7 17 00 00 24 00 00 00 00 00 00 00 00 00 00 00 00 00 98 BD FF FF FF FF 
       FF FF 00 76 84 DF 00 00 00 00 00 00 00 00 00 00 00 00 00 00 00 00 00 00 00 00 58 3E 0F 00 80 A8 12 01 0F 27 00 00 5C 40 56 2F 00 00 00 00 00 00 
       00 00 CC A9

[ 131]     2758.139 ms | NAV-POSLLH      | Len=  28 | mavic4_ansdrone_decoder--251229-151141.txt
       B5 62 01 02 1C 00 90 01 00 00 00 00 00 00 00 00 00 00 00 00 00 00 98 BD FF FF FF FF FF FF 00 76 84 DF D8 DC

[ 132]     2758.529 ms | NAV-VELNED      | Len=  36 | mavic4_ansdrone_decoder--251229-151141.txt
       B5 62 01 12 24 00 90 01 00 00 00 00 00 00 00 00 00 00 00 00 00 00 00 00 00 00 00 00 00 00 00 00 00 00 3C 86 01 00 80 A8 12 01 C6 4E

[ 133]     2759.007 ms | NAV-SAT         | Len=   8 | mavic4_ansdrone_decoder--251229-151141.txt
       B5 62 01 35 08 00 90 01 00 00 01 00 00 00 D0 2E

[ 134]     2759.180 ms | NAV-STATUS      | Len=  16 | mavic4_ansdrone_decoder--251229-151141.txt
       B5 62 01 03 10 00 90 01 00 00 00 40 00 08 00 00 00 00 A4 01 00 00 92 17

[ 135]     2759.440 ms | NAV-DOP         | Len=  18 | mavic4_ansdrone_decoder--251229-151141.txt
       B5 62 01 04 12 00 90 01 00 00 0F 27 0F 27 0F 27 0F 27 0F 27 0F 27 0F 27 22 C2

[ 136]     2759.722 ms | NAV-TIMEGPS     | Len=  16 | mavic4_ansdrone_decoder--251229-151141.txt
       B5 62 01 20 10 00 90 01 00 00 00 00 00 00 00 00 12 00 FF FF FF FF D0 05

[ 137]     2759.983 ms | NAV-TIMEUTC     | Len=  20 | mavic4_ansdrone_decoder--251229-151141.txt
       B5 62 01 21 14 00 90 01 00 00 FF FF FF FF 00 84 D7 17 E5 07 03 07 00 00 00 F0 1B 3F

[ 138]     2760.287 ms | NAV-CLOCK       | Len=  20 | mavic4_ansdrone_decoder--251229-151141.txt
       B5 62 01 22 14 00 90 01 00 00 00 00 00 00 00 00 00 00 FF FF FF FF 7C 36 39 00 AF 1B

[ 139]     2760.590 ms | NAV-0x60        | Len=  16 | mavic4_ansdrone_decoder--251229-151141.txt
       B5 62 01 60 10 00 90 01 00 00 00 00 00 00 00 00 00 00 00 00 00 00 02 63

[ 140]     2890.346 ms | MON-0x38        | Len=  28 | mavic4_ansdrone_decoder--251229-151141.txt
       B5 62 0A 38 1C 00 00 01 00 00 00 00 01 02 00 00 00 00 00 00 00 00 64 00 A2 03 08 09 93 09 80 00 00 00 98 E8

[ 141]     2949.335 ms | RXM-0x15        | Len=  16 | mavic4_ansdrone_decoder--251229-151141.txt
       B5 62 02 15 10 00 9A 99 99 99 99 99 D9 3F 00 00 12 00 00 01 28 04 15 C4

[ 142]     2958.333 ms | NAV-PVT         | Len=  92 | mavic4_ansdrone_decoder--251229-151141.txt
       B5 62 01 07 5C 00 58 02 00 00 E5 07 03 07 00 00 00 F0 FF FF FF FF 00 46 C3 23 00 00 24 00 00 00 00 00 00 00 00 00 00 00 00 00 98 BD FF FF FF FF 
       FF FF 00 76 84 DF 00 00 00 00 00 00 00 00 00 00 00 00 00 00 00 00 00 00 00 00 58 3E 0F 00 80 A8 12 01 0F 27 00 00 5C 40 56 2F 00 00 00 00 00 00 
       00 00 4F 5E

[ 143]     2959.418 ms | NAV-POSLLH      | Len=  28 | mavic4_ansdrone_decoder--251229-151141.txt
       B5 62 01 02 1C 00 58 02 00 00 00 00 00 00 00 00 00 00 00 00 00 00 98 BD FF FF FF FF FF FF 00 76 84 DF A1 D7

[ 144]     2959.808 ms | NAV-VELNED      | Len=  36 | mavic4_ansdrone_decoder--251229-151141.txt
       B5 62 01 12 24 00 58 02 00 00 00 00 00 00 00 00 00 00 00 00 00 00 00 00 00 00 00 00 00 00 00 00 00 00 3C 86 01 00 80 A8 12 01 8F 91

[ 145]     2960.285 ms | NAV-SAT         | Len=   8 | mavic4_ansdrone_decoder--251229-151141.txt
       B5 62 01 35 08 00 58 02 00 00 01 00 00 00 99 75

[ 146]     2960.459 ms | NAV-STATUS      | Len=  16 | mavic4_ansdrone_decoder--251229-151141.txt
       B5 62 01 03 10 00 58 02 00 00 00 40 00 08 00 00 00 00 6C 02 00 00 24 C9

[ 147]     2960.719 ms | NAV-DOP         | Len=  18 | mavic4_ansdrone_decoder--251229-151141.txt
       B5 62 01 04 12 00 58 02 00 00 0F 27 0F 27 0F 27 0F 27 0F 27 0F 27 0F 27 EB E3

[ 148]     2961.001 ms | NAV-TIMEGPS     | Len=  16 | mavic4_ansdrone_decoder--251229-151141.txt
       B5 62 01 20 10 00 58 02 00 00 00 00 00 00 00 00 12 00 FF FF FF FF 99 94

[ 149]     2961.262 ms | NAV-TIMEUTC     | Len=  20 | mavic4_ansdrone_decoder--251229-151141.txt
       B5 62 01 21 14 00 58 02 00 00 FF FF FF FF 00 46 C3 23 E5 07 03 07 00 00 00 F0 9E EC

[ 150]     2961.565 ms | NAV-CLOCK       | Len=  20 | mavic4_ansdrone_decoder--251229-151141.txt
       B5 62 01 22 14 00 58 02 00 00 00 00 00 00 00 00 00 00 FF FF FF FF 7C 36 39 00 78 CE

[ 151]     2961.869 ms | NAV-0x60        | Len=  16 | mavic4_ansdrone_decoder--251229-151141.txt
       B5 62 01 60 10 00 58 02 00 00 00 00 00 00 00 00 00 00 00 00 00 00 CB F2

[ 152]     3015.822 ms | SEC-SIGN        | Len= 108 | mavic4_ansdrone_decoder--251229-151141.txt
       B5 62 27 04 6C 00 01 00 E4 00 E9 2D B1 F8 EF 4B BC 7D 7B 38 54 37 5B EC 6E 6D A9 72 5E 1B 3E D3 12 CD B4 D2 D2 C4 B3 F9 B7 22 00 00 00 00 00 00 
       00 00 00 00 00 00 00 00 00 00 00 00 00 00 00 00 00 00 52 15 8C B5 C1 C1 0C 9A D9 ED C3 37 FC 30 C7 B4 28 55 D7 2A DF C0 D2 68 54 74 9E 7E 57 8D 
       1A 55 0A F7 06 0E 6B 73 7D 4B DE C3 F0 C0 EE 1B B7 F1 B5 21

[ 153]     3149.321 ms | RXM-0x15        | Len=  16 | mavic4_ansdrone_decoder--251229-151141.txt
       B5 62 02 15 10 00 33 33 33 33 33 33 E3 3F 00 00 12 00 00 01 F0 04 82 62

[ 154]     3156.645 ms | NAV-PVT         | Len=  92 | mavic4_ansdrone_decoder--251229-151141.txt
       B5 62 01 07 5C 00 20 03 00 00 E5 07 03 07 00 00 00 F0 FF FF FF FF 00 08 AF 2F 00 00 24 00 00 00 00 00 00 00 00 00 00 00 00 00 98 BD FF FF FF FF 
       FF FF 00 76 84 DF 00 00 00 00 00 00 00 00 00 00 00 00 00 00 00 00 00 00 00 00 58 3E 0F 00 80 A8 12 01 0F 27 00 00 5C 40 56 2F 00 00 00 00 00 00 
       00 00 D2 13

[ 155]     3157.730 ms | NAV-POSLLH      | Len=  28 | mavic4_ansdrone_decoder--251229-151141.txt
       B5 62 01 02 1C 00 20 03 00 00 00 00 00 00 00 00 00 00 00 00 00 00 98 BD FF FF FF FF FF FF 00 76 84 DF 6A D2

[ 156]     3158.121 ms | NAV-VELNED      | Len=  36 | mavic4_ansdrone_decoder--251229-151141.txt
       B5 62 01 12 24 00 20 03 00 00 00 00 00 00 00 00 00 00 00 00 00 00 00 00 00 00 00 00 00 00 00 00 00 00 3C 86 01 00 80 A8 12 01 58 D4

[ 157]     3158.598 ms | NAV-SAT         | Len=   8 | mavic4_ansdrone_decoder--251229-151141.txt
       B5 62 01 35 08 00 20 03 00 00 01 00 00 00 62 BC

[ 158]     3158.772 ms | NAV-STATUS      | Len=  16 | mavic4_ansdrone_decoder--251229-151141.txt
       B5 62 01 03 10 00 20 03 00 00 00 40 00 08 00 00 00 00 34 03 00 00 B6 7B

[ 159]     3159.032 ms | NAV-DOP         | Len=  18 | mavic4_ansdrone_decoder--251229-151141.txt
       B5 62 01 04 12 00 20 03 00 00 0F 27 0F 27 0F 27 0F 27 0F 27 0F 27 0F 27 B4 04

[ 160]     3159.314 ms | NAV-TIMEGPS     | Len=  16 | mavic4_ansdrone_decoder--251229-151141.txt
       B5 62 01 20 10 00 20 03 00 00 00 00 00 00 00 00 12 00 FF FF FF FF 62 23

[ 161]     3159.574 ms | NAV-TIMEUTC     | Len=  20 | mavic4_ansdrone_decoder--251229-151141.txt
       B5 62 01 21 14 00 20 03 00 00 FF FF FF FF 00 08 AF 2F E5 07 03 07 00 00 00 F0 21 99

[ 162]     3159.878 ms | NAV-CLOCK       | Len=  20 | mavic4_ansdrone_decoder--251229-151141.txt
       B5 62 01 22 14 00 20 03 00 00 00 00 00 00 00 00 00 00 FF FF FF FF 7C 36 39 00 41 81

[ 163]     3160.182 ms | NAV-0x60        | Len=  16 | mavic4_ansdrone_decoder--251229-151141.txt
       B5 62 01 60 10 00 20 03 00 00 00 00 00 00 00 00 00 00 00 00 00 00 94 81

[ 164]     3349.365 ms | RXM-0x15        | Len=  16 | mavic4_ansdrone_decoder--251229-151141.txt
       B5 62 02 15 10 00 9A 99 99 99 99 99 E9 3F 00 00 12 00 00 01 B8 05 B6 85

[ 165]     3357.009 ms | NAV-PVT         | Len=  92 | mavic4_ansdrone_decoder--251229-151141.txt
       B5 62 01 07 5C 00 E8 03 00 00 E5 07 03 07 00 00 01 F0 FF FF FF FF 00 00 00 00 00 00 24 00 00 00 00 00 00 00 00 00 00 00 00 00 98 BD FF FF FF FF 
       FF FF 00 76 84 DF 00 00 00 00 00 00 00 00 00 00 00 00 00 00 00 00 00 00 00 00 58 3E 0F 00 80 A8 12 01 0F 27 00 00 5C 40 56 2F 00 00 00 00 00 00 
       00 00 B5 F0

[ 166]     3358.094 ms | NAV-POSLLH      | Len=  28 | mavic4_ansdrone_decoder--251229-151141.txt
       B5 62 01 02 1C 00 E8 03 00 00 00 00 00 00 00 00 00 00 00 00 00 00 98 BD FF FF FF FF FF FF 00 76 84 DF 32 B2

[ 167]     3358.484 ms | NAV-VELNED      | Len=  36 | mavic4_ansdrone_decoder--251229-151141.txt
       B5 62 01 12 24 00 E8 03 00 00 00 00 00 00 00 00 00 00 00 00 00 00 00 00 00 00 00 00 00 00 00 00 00 00 3C 86 01 00 80 A8 12 01 20 F4

[ 168]     3358.961 ms | NAV-SAT         | Len=   8 | mavic4_ansdrone_decoder--251229-151141.txt
       B5 62 01 35 08 00 E8 03 00 00 01 00 00 00 2A FC

[ 169]     3359.135 ms | NAV-STATUS      | Len=  16 | mavic4_ansdrone_decoder--251229-151141.txt
       B5 62 01 03 10 00 E8 03 00 00 00 40 00 08 00 00 00 00 FC 03 00 00 46 1B

[ 170]     3359.395 ms | NAV-DOP         | Len=  18 | mavic4_ansdrone_decoder--251229-151141.txt
       B5 62 01 04 12 00 E8 03 00 00 0F 27 0F 27 0F 27 0F 27 0F 27 0F 27 0F 27 7C 14

[ 171]     3359.677 ms | NAV-TIMEGPS     | Len=  16 | mavic4_ansdrone_decoder--251229-151141.txt
       B5 62 01 20 10 00 E8 03 00 00 00 00 00 00 00 00 12 00 FF FF FF FF 2A A3

[ 172]     3359.938 ms | NAV-TIMEUTC     | Len=  20 | mavic4_ansdrone_decoder--251229-151141.txt
       B5 62 01 21 14 00 E8 03 00 00 FF FF FF FF 00 00 00 00 E5 07 03 07 00 00 01 F0 04 66

[ 173]     3360.241 ms | NAV-CLOCK       | Len=  20 | mavic4_ansdrone_decoder--251229-151141.txt
       B5 62 01 22 14 00 E8 03 00 00 00 00 00 00 00 00 00 00 FF FF FF FF 7C 36 39 00 09 21

[ 174]     3360.545 ms | NAV-0x60        | Len=  16 | mavic4_ansdrone_decoder--251229-151141.txt
       B5 62 01 60 10 00 E8 03 00 00 00 00 00 00 00 00 00 00 00 00 00 00 5C 01

[ 175]     3549.347 ms | RXM-0x15        | Len=  16 | mavic4_ansdrone_decoder--251229-151141.txt
       B5 62 02 15 10 00 00 00 00 00 00 00 F0 3F 00 00 12 00 00 01 80 06 EF E3

[ 176]     3557.009 ms | NAV-PVT         | Len=  92 | mavic4_ansdrone_decoder--251229-151141.txt
       B5 62 01 07 5C 00 B0 04 00 00 E5 07 03 07 00 00 01 F0 FF FF FF FF FF C1 EB 0B 00 00 24 00 00 00 00 00 00 00 00 00 00 00 00 00 98 BD FF FF FF FF 
       FF FF 00 76 84 DF 00 00 00 00 00 00 00 00 00 00 00 00 00 00 00 00 00 00 00 00 58 3E 0F 00 80 A8 12 01 0F 27 00 00 5C 40 56 2F 00 00 00 00 00 00 
       00 00 34 7B

[ 177]     3558.093 ms | NAV-POSLLH      | Len=  28 | mavic4_ansdrone_decoder--251229-151141.txt
       B5 62 01 02 1C 00 B0 04 00 00 00 00 00 00 00 00 00 00 00 00 00 00 98 BD FF FF FF FF FF FF 00 76 84 DF FB AD

[ 178]     3558.484 ms | NAV-VELNED      | Len=  36 | mavic4_ansdrone_decoder--251229-151141.txt
       B5 62 01 12 24 00 B0 04 00 00 00 00 00 00 00 00 00 00 00 00 00 00 00 00 00 00 00 00 00 00 00 00 00 00 3C 86 01 00 80 A8 12 01 E9 37

[ 179]     3558.961 ms | NAV-SAT         | Len=   8 | mavic4_ansdrone_decoder--251229-151141.txt
       B5 62 01 35 08 00 B0 04 00 00 01 00 00 00 F3 43

[ 180]     3559.135 ms | NAV-STATUS      | Len=  16 | mavic4_ansdrone_decoder--251229-151141.txt
       B5 62 01 03 10 00 B0 04 00 00 00 40 00 08 00 00 00 00 C4 04 00 00 D8 CD

[ 181]     3559.395 ms | NAV-DOP         | Len=  18 | mavic4_ansdrone_decoder--251229-151141.txt
       B5 62 01 04 12 00 B0 04 00 00 0F 27 0F 27 0F 27 0F 27 0F 27 0F 27 0F 27 45 35

[ 182]     3559.677 ms | NAV-TIMEGPS     | Len=  16 | mavic4_ansdrone_decoder--251229-151141.txt
       B5 62 01 20 10 00 B0 04 00 00 00 00 00 00 00 00 12 00 FF FF FF FF F3 32

[ 183]     3559.937 ms | NAV-TIMEUTC     | Len=  20 | mavic4_ansdrone_decoder--251229-151141.txt
       B5 62 01 21 14 00 B0 04 00 00 FF FF FF FF FF C1 EB 0B E5 07 03 07 00 00 01 F0 83 E9

[ 184]     3560.241 ms | NAV-CLOCK       | Len=  20 | mavic4_ansdrone_decoder--251229-151141.txt
       B5 62 01 22 14 00 B0 04 00 00 00 00 00 00 00 00 00 00 FF FF FF FF 7C 36 39 00 D2 D4

[ 185]     3560.545 ms | NAV-0x60        | Len=  16 | mavic4_ansdrone_decoder--251229-151141.txt
       B5 62 01 60 10 00 B0 04 00 00 00 00 00 00 00 00 00 00 00 00 00 00 25 90

[ 186]     3749.333 ms | RXM-0x15        | Len=  16 | mavic4_ansdrone_decoder--251229-151141.txt
       B5 62 02 15 10 00 33 33 33 33 33 33 F3 3F 00 00 12 00 00 01 48 07 ED B5

[ 187]     3756.495 ms | NAV-PVT         | Len=  92 | mavic4_ansdrone_decoder--251229-151141.txt
       B5 62 01 07 5C 00 78 05 00 00 E5 07 03 07 00 00 01 F0 FF FF FF FF 00 84 D7 17 00 00 24 00 00 00 00 00 00 00 00 00 00 00 00 00 98 BD FF FF FF FF 
       FF FF 00 76 84 DF 00 00 00 00 00 00 00 00 00 00 00 00 00 00 00 00 00 00 00 00 58 3E 0F 00 80 A8 12 01 0F 27 00 00 5C 40 56 2F 00 00 00 00 00 00 
       00 00 B9 C7

[ 188]     3757.580 ms | NAV-POSLLH      | Len=  28 | mavic4_ansdrone_decoder--251229-151141.txt
       B5 62 01 02 1C 00 78 05 00 00 00 00 00 00 00 00 00 00 00 00 00 00 98 BD FF FF FF FF FF FF 00 76 84 DF C4 A8

[ 189]     3757.971 ms | NAV-VELNED      | Len=  36 | mavic4_ansdrone_decoder--251229-151141.txt
       B5 62 01 12 24 00 78 05 00 00 00 00 00 00 00 00 00 00 00 00 00 00 00 00 00 00 00 00 00 00 00 00 00 00 3C 86 01 00 80 A8 12 01 B2 7A

[ 190]     3758.448 ms | NAV-SAT         | Len=   8 | mavic4_ansdrone_decoder--251229-151141.txt
       B5 62 01 35 08 00 78 05 00 00 01 00 00 00 BC 8A

[ 191]     3758.621 ms | NAV-STATUS      | Len=  16 | mavic4_ansdrone_decoder--251229-151141.txt
       B5 62 01 03 10 00 78 05 00 00 00 40 00 08 00 00 00 00 8C 05 00 00 6A 7F

[ 192]     3758.882 ms | NAV-DOP         | Len=  18 | mavic4_ansdrone_decoder--251229-151141.txt
       B5 62 01 04 12 00 78 05 00 00 0F 27 0F 27 0F 27 0F 27 0F 27 0F 27 0F 27 0E 56

[ 193]     3759.164 ms | NAV-TIMEGPS     | Len=  16 | mavic4_ansdrone_decoder--251229-151141.txt
       B5 62 01 20 10 00 78 05 00 00 00 00 00 00 00 00 12 00 FF FF FF FF BC C1

[ 194]     3759.424 ms | NAV-TIMEUTC     | Len=  20 | mavic4_ansdrone_decoder--251229-151141.txt
       B5 62 01 21 14 00 78 05 00 00 FF FF FF FF 00 84 D7 17 E5 07 03 07 00 00 01 F0 08 AD

[ 195]     3759.728 ms | NAV-CLOCK       | Len=  20 | mavic4_ansdrone_decoder--251229-151141.txt
       B5 62 01 22 14 00 78 05 00 00 00 00 00 00 00 00 00 00 FF FF FF FF 7C 36 39 00 9B 87

[ 196]     3760.032 ms | NAV-0x60        | Len=  16 | mavic4_ansdrone_decoder--251229-151141.txt
       B5 62 01 60 10 00 78 05 00 00 00 00 00 00 00 00 00 00 00 00 00 00 EE 1F

[ 197]     3902.779 ms | MON-0x38        | Len=  28 | mavic4_ansdrone_decoder--251229-151141.txt
       B5 62 0A 38 1C 00 00 01 00 00 00 00 01 02 00 00 00 00 00 00 00 00 5D 00 A2 03 07 09 90 09 7E 00 00 00 8B 72

[ 198]     3949.337 ms | RXM-0x15        | Len=  16 | mavic4_ansdrone_decoder--251229-151141.txt
       B5 62 02 15 10 00 67 66 66 66 66 66 F6 3F 00 00 12 00 00 01 10 08 EC 97

[ 199]     3958.931 ms | NAV-PVT         | Len=  92 | mavic4_ansdrone_decoder--251229-151141.txt
       B5 62 01 07 5C 00 40 06 00 00 E5 07 03 07 00 00 01 F0 FF FF FF FF 00 46 C3 23 00 00 24 00 00 00 00 00 00 00 00 00 00 00 00 00 98 BD FF FF FF FF 
       FF FF 00 76 84 DF 00 00 00 00 00 00 00 00 00 00 00 00 00 00 00 00 00 00 00 00 58 3E 0F 00 80 A8 12 01 0F 27 00 00 5C 40 56 2F 00 00 00 00 00 00 
       00 00 3C 7C

[ 200]     3960.016 ms | NAV-POSLLH      | Len=  28 | mavic4_ansdrone_decoder--251229-151141.txt
       B5 62 01 02 1C 00 40 06 00 00 00 00 00 00 00 00 00 00 00 00 00 00 98 BD FF FF FF FF FF FF 00 76 84 DF 8D A3

[ 201]     3960.406 ms | NAV-VELNED      | Len=  36 | mavic4_ansdrone_decoder--251229-151141.txt
       B5 62 01 12 24 00 40 06 00 00 00 00 00 00 00 00 00 00 00 00 00 00 00 00 00 00 00 00 00 00 00 00 00 00 3C 86 01 00 80 A8 12 01 7B BD

[ 202]     3960.884 ms | NAV-SAT         | Len=   8 | mavic4_ansdrone_decoder--251229-151141.txt
       B5 62 01 35 08 00 40 06 00 00 01 00 00 00 85 D1

[ 203]     3961.057 ms | NAV-STATUS      | Len=  16 | mavic4_ansdrone_decoder--251229-151141.txt
       B5 62 01 03 10 00 40 06 00 00 00 40 00 08 00 00 00 00 54 06 00 00 FC 31

[ 204]     3961.318 ms | NAV-DOP         | Len=  18 | mavic4_ansdrone_decoder--251229-151141.txt
       B5 62 01 04 12 00 40 06 00 00 0F 27 0F 27 0F 27 0F 27 0F 27 0F 27 0F 27 D7 77

[ 205]     3961.600 ms | NAV-TIMEGPS     | Len=  16 | mavic4_ansdrone_decoder--251229-151141.txt
       B5 62 01 20 10 00 40 06 00 00 00 00 00 00 00 00 12 00 FF FF FF FF 85 50

[ 206]     3961.860 ms | NAV-TIMEUTC     | Len=  20 | mavic4_ansdrone_decoder--251229-151141.txt
       B5 62 01 21 14 00 40 06 00 00 FF FF FF FF 00 46 C3 23 E5 07 03 07 00 00 01 F0 8B 5A

[ 207]     3962.164 ms | NAV-CLOCK       | Len=  20 | mavic4_ansdrone_decoder--251229-151141.txt
       B5 62 01 22 14 00 40 06 00 00 00 00 00 00 00 00 00 00 FF FF FF FF 7C 36 39 00 64 3A

[ 208]     3962.467 ms | NAV-0x60        | Len=  16 | mavic4_ansdrone_decoder--251229-151141.txt
       B5 62 01 60 10 00 40 06 00 00 00 00 00 00 00 00 00 00 00 00 00 00 B7 AE

[ 209]     4149.340 ms | RXM-0x15        | Len=  16 | mavic4_ansdrone_decoder--251229-151141.txt
       B5 62 02 15 10 00 9A 99 99 99 99 99 F9 3F 00 00 12 00 00 01 D8 08 E9 68

[ 210]     4157.564 ms | NAV-PVT         | Len=  92 | mavic4_ansdrone_decoder--251229-151141.txt
       B5 62 01 07 5C 00 08 07 00 00 E5 07 03 07 00 00 01 F0 FF FF FF FF 00 08 AF 2F 00 00 24 00 00 00 00 00 00 00 00 00 00 00 00 00 98 BD FF FF FF FF 
       FF FF 00 77 84 DF 00 00 00 00 00 00 00 00 00 00 00 00 00 00 00 00 00 00 00 00 58 3E 0F 00 80 A8 12 01 0F 27 00 00 5C 40 56 2F 00 00 00 00 00 00 
       00 00 C0 60

[ 211]     4158.648 ms | NAV-POSLLH      | Len=  28 | mavic4_ansdrone_decoder--251229-151141.txt
       B5 62 01 02 1C 00 08 07 00 00 00 00 00 00 00 00 00 00 00 00 00 00 98 BD FF FF FF FF FF FF 00 77 84 DF 57 A1

[ 212]     4159.039 ms | NAV-VELNED      | Len=  36 | mavic4_ansdrone_decoder--251229-151141.txt
       B5 62 01 12 24 00 08 07 00 00 00 00 00 00 00 00 00 00 00 00 00 00 00 00 00 00 00 00 00 00 00 00 00 00 3C 86 01 00 80 A8 12 01 44 00

[ 213]     4159.516 ms | NAV-SAT         | Len=   8 | mavic4_ansdrone_decoder--251229-151141.txt
       B5 62 01 35 08 00 08 07 00 00 01 00 00 00 4E 18

[ 214]     4159.690 ms | NAV-STATUS      | Len=  16 | mavic4_ansdrone_decoder--251229-151141.txt
       B5 62 01 03 10 00 08 07 00 00 00 40 00 08 00 00 00 00 1C 07 00 00 8E E3

[ 215]     4159.950 ms | NAV-DOP         | Len=  18 | mavic4_ansdrone_decoder--251229-151141.txt
       B5 62 01 04 12 00 08 07 00 00 0F 27 0F 27 0F 27 0F 27 0F 27 0F 27 0F 27 A0 98

[ 216]     4160.232 ms | NAV-TIMEGPS     | Len=  16 | mavic4_ansdrone_decoder--251229-151141.txt
       B5 62 01 20 10 00 08 07 00 00 00 00 00 00 00 00 12 00 FF FF FF FF 4E DF

[ 217]     4160.493 ms | NAV-TIMEUTC     | Len=  20 | mavic4_ansdrone_decoder--251229-151141.txt
       B5 62 01 21 14 00 08 07 00 00 FF FF FF FF 00 08 AF 2F E5 07 03 07 00 00 01 F0 0E 07

[ 218]     4160.796 ms | NAV-CLOCK       | Len=  20 | mavic4_ansdrone_decoder--251229-151141.txt
       B5 62 01 22 14 00 08 07 00 00 00 00 00 00 00 00 00 00 FF FF FF FF 7C 36 39 00 2D ED

[ 219]     4161.100 ms | NAV-0x60        | Len=  16 | mavic4_ansdrone_decoder--251229-151141.txt
       B5 62 01 60 10 00 08 07 00 00 00 00 00 00 00 00 00 00 00 00 00 00 80 3D

[ 220]     4349.395 ms | RXM-0x15        | Len=  16 | mavic4_ansdrone_decoder--251229-151141.txt
       B5 62 02 15 10 00 CD CC CC CC CC CC FC 3F 00 00 12 00 00 01 A0 09 E7 3A

[ 221]     4357.910 ms | NAV-PVT         | Len=  92 | mavic4_ansdrone_decoder--251229-151141.txt
       B5 62 01 07 5C 00 D0 07 00 00 E5 07 03 07 00 00 02 F0 FF FF FF FF 00 00 00 00 00 00 24 00 00 00 00 00 00 00 00 00 00 00 00 00 98 BD FF FF FF FF 
       FF FF 00 77 84 DF 00 00 00 00 00 00 00 00 00 00 00 00 00 00 00 00 00 00 00 00 58 3E 0F 00 80 A8 12 01 0F 27 00 00 5C 40 56 2F 00 00 00 00 00 00 
       00 00 A3 3D

[ 222]     4358.995 ms | NAV-POSLLH      | Len=  28 | mavic4_ansdrone_decoder--251229-151141.txt
       B5 62 01 02 1C 00 D0 07 00 00 00 00 00 00 00 00 00 00 00 00 00 00 98 BD FF FF FF FF FF FF 00 77 84 DF 1F 81

[ 223]     4359.386 ms | NAV-VELNED      | Len=  36 | mavic4_ansdrone_decoder--251229-151141.txt
       B5 62 01 12 24 00 D0 07 00 00 00 00 00 00 00 00 00 00 00 00 00 00 00 00 00 00 00 00 00 00 00 00 00 00 3C 86 01 00 80 A8 12 01 0C 20

[ 224]     4359.863 ms | NAV-SAT         | Len=   8 | mavic4_ansdrone_decoder--251229-151141.txt
       B5 62 01 35 08 00 D0 07 00 00 01 00 00 00 16 58

[ 225]     4360.036 ms | NAV-STATUS      | Len=  16 | mavic4_ansdrone_decoder--251229-151141.txt
       B5 62 01 03 10 00 D0 07 00 00 00 40 00 08 00 00 00 00 E4 07 00 00 1E 83

[ 226]     4360.297 ms | NAV-DOP         | Len=  18 | mavic4_ansdrone_decoder--251229-151141.txt
       B5 62 01 04 12 00 D0 07 00 00 0F 27 0F 27 0F 27 0F 27 0F 27 0F 27 0F 27 68 A8

[ 227]     4360.579 ms | NAV-TIMEGPS     | Len=  16 | mavic4_ansdrone_decoder--251229-151141.txt
       B5 62 01 20 10 00 D0 07 00 00 00 00 00 00 00 00 12 00 FF FF FF FF 16 5F

[ 228]     4360.839 ms | NAV-TIMEUTC     | Len=  20 | mavic4_ansdrone_decoder--251229-151141.txt
       B5 62 01 21 14 00 D0 07 00 00 FF FF FF FF 00 00 00 00 E5 07 03 07 00 00 02 F0 F1 D4

[ 229]     4361.143 ms | NAV-CLOCK       | Len=  20 | mavic4_ansdrone_decoder--251229-151141.txt
       B5 62 01 22 14 00 D0 07 00 00 00 00 00 00 00 00 00 00 FF FF FF FF 7C 36 39 00 F5 8D

[ 230]     4361.447 ms | NAV-0x60        | Len=  16 | mavic4_ansdrone_decoder--251229-151141.txt
       B5 62 01 60 10 00 D0 07 00 00 00 00 00 00 00 00 00 00 00 00 00 00 48 BD

[ 231]     4549.364 ms | RXM-0x15        | Len=  16 | mavic4_ansdrone_decoder--251229-151141.txt
       B5 62 02 15 10 00 00 00 00 00 00 00 00 40 00 00 12 00 00 01 68 0A EC 60

[ 232]     4557.349 ms | NAV-PVT         | Len=  92 | mavic4_ansdrone_decoder--251229-151141.txt
       B5 62 01 07 5C 00 98 08 00 00 E5 07 03 07 00 00 02 F0 FF FF FF FF 00 C2 EB 0B 00 00 24 00 00 00 00 00 00 00 00 00 00 00 00 00 98 BD FF FF FF FF 
       FF FF 00 78 84 DF 00 00 00 00 00 00 00 00 00 00 00 00 00 00 00 00 00 00 00 00 58 3E 0F 00 80 A8 12 01 0F 27 00 00 5C 40 56 2F 00 00 00 00 00 00 
       00 00 25 8E

[ 233]     4558.433 ms | NAV-POSLLH      | Len=  28 | mavic4_ansdrone_decoder--251229-151141.txt
       B5 62 01 02 1C 00 98 08 00 00 00 00 00 00 00 00 00 00 00 00 00 00 98 BD FF FF FF FF FF FF 00 78 84 DF E9 7F

[ 234]     4558.824 ms | NAV-VELNED      | Len=  36 | mavic4_ansdrone_decoder--251229-151141.txt
       B5 62 01 12 24 00 98 08 00 00 00 00 00 00 00 00 00 00 00 00 00 00 00 00 00 00 00 00 00 00 00 00 00 00 3C 86 01 00 80 A8 12 01 D5 63

[ 235]     4559.301 ms | NAV-SAT         | Len=   8 | mavic4_ansdrone_decoder--251229-151141.txt
       B5 62 01 35 08 00 98 08 00 00 01 00 00 00 DF 9F

[ 236]     4559.475 ms | NAV-STATUS      | Len=  16 | mavic4_ansdrone_decoder--251229-151141.txt
       B5 62 01 03 10 00 98 08 00 00 00 40 00 08 00 00 00 00 AC 08 00 00 B0 35

[ 237]     4559.735 ms | NAV-DOP         | Len=  18 | mavic4_ansdrone_decoder--251229-151141.txt
       B5 62 01 04 12 00 98 08 00 00 0F 27 0F 27 0F 27 0F 27 0F 27 0F 27 0F 27 31 C9

[ 238]     4560.017 ms | NAV-TIMEGPS     | Len=  16 | mavic4_ansdrone_decoder--251229-151141.txt
       B5 62 01 20 10 00 98 08 00 00 00 00 00 00 00 00 12 00 FF FF FF FF DF EE

[ 239]     4560.278 ms | NAV-TIMEUTC     | Len=  20 | mavic4_ansdrone_decoder--251229-151141.txt
       B5 62 01 21 14 00 98 08 00 00 FF FF FF FF 00 C2 EB 0B E5 07 03 07 00 00 02 F0 72 6E

[ 240]     4560.581 ms | NAV-CLOCK       | Len=  20 | mavic4_ansdrone_decoder--251229-151141.txt
       B5 62 01 22 14 00 98 08 00 00 00 00 00 00 00 00 00 00 FF FF FF FF 7C 36 39 00 BE 40

[ 241]     4560.885 ms | NAV-0x60        | Len=  16 | mavic4_ansdrone_decoder--251229-151141.txt
       B5 62 01 60 10 00 98 08 00 00 00 00 00 00 00 00 00 00 00 00 00 00 11 4C

[ 242]     4749.324 ms | RXM-0x15        | Len=  16 | mavic4_ansdrone_decoder--251229-151141.txt
       B5 62 02 15 10 00 9A 99 99 99 99 99 01 40 00 00 12 00 00 01 30 0B 4D 74

[ 243]     4756.311 ms | NAV-PVT         | Len=  92 | mavic4_ansdrone_decoder--251229-151141.txt
       B5 62 01 07 5C 00 60 09 00 00 E5 07 03 07 00 00 02 F0 FF FF FF FF FF 83 D7 17 00 00 24 00 00 00 00 00 00 00 00 00 00 00 00 00 98 BD FF FF FF FF 
       FF FF 00 78 84 DF 00 00 00 00 00 00 00 00 00 00 00 00 00 00 00 00 00 00 00 00 58 3E 0F 00 80 A8 12 01 0F 27 00 00 5C 40 56 2F 00 00 00 00 00 00 
       00 00 A6 AC

[ 244]     4757.396 ms | NAV-POSLLH      | Len=  28 | mavic4_ansdrone_decoder--251229-151141.txt
       B5 62 01 02 1C 00 60 09 00 00 00 00 00 00 00 00 00 00 00 00 00 00 98 BD FF FF FF FF FF FF 00 78 84 DF B2 7A

[ 245]     4757.787 ms | NAV-VELNED      | Len=  36 | mavic4_ansdrone_decoder--251229-151141.txt
       B5 62 01 12 24 00 60 09 00 00 00 00 00 00 00 00 00 00 00 00 00 00 00 00 00 00 00 00 00 00 00 00 00 00 3C 86 01 00 80 A8 12 01 9E A6

[ 246]     4758.264 ms | NAV-SAT         | Len=   8 | mavic4_ansdrone_decoder--251229-151141.txt
       B5 62 01 35 08 00 60 09 00 00 01 00 00 00 A8 E6

[ 247]     4758.437 ms | NAV-STATUS      | Len=  16 | mavic4_ansdrone_decoder--251229-151141.txt
       B5 62 01 03 10 00 60 09 00 00 00 40 00 08 00 00 00 00 74 09 00 00 42 E7

[ 248]     4758.698 ms | NAV-DOP         | Len=  18 | mavic4_ansdrone_decoder--251229-151141.txt
       B5 62 01 04 12 00 60 09 00 00 0F 27 0F 27 0F 27 0F 27 0F 27 0F 27 0F 27 FA EA

[ 249]     4758.980 ms | NAV-TIMEGPS     | Len=  16 | mavic4_ansdrone_decoder--251229-151141.txt
       B5 62 01 20 10 00 60 09 00 00 00 00 00 00 00 00 12 00 FF FF FF FF A8 7D

[ 250]     4759.240 ms | NAV-TIMEUTC     | Len=  20 | mavic4_ansdrone_decoder--251229-151141.txt
       B5 62 01 21 14 00 60 09 00 00 FF FF FF FF FF 83 D7 17 E5 07 03 07 00 00 02 F0 F3 04

[ 251]     4759.544 ms | NAV-CLOCK       | Len=  20 | mavic4_ansdrone_decoder--251229-151141.txt
       B5 62 01 22 14 00 60 09 00 00 00 00 00 00 00 00 00 00 FF FF FF FF 7C 36 39 00 87 F3

[ 252]     4759.848 ms | NAV-0x60        | Len=  16 | mavic4_ansdrone_decoder--251229-151141.txt
       B5 62 01 60 10 00 60 09 00 00 00 00 00 00 00 00 00 00 00 00 00 00 DA DB

[ 253]     4887.790 ms | MON-0x38        | Len=  28 | mavic4_ansdrone_decoder--251229-151141.txt
       B5 62 0A 38 1C 00 00 01 00 00 00 00 01 02 00 00 00 00 00 00 00 00 5D 00 A2 03 08 0A 8D 09 7D 00 00 00 89 6B

[ 254]     4949.342 ms | RXM-0x15        | Len=  16 | mavic4_ansdrone_decoder--251229-151141.txt
       B5 62 02 15 10 00 33 33 33 33 33 33 03 40 00 00 12 00 00 01 F8 0B B2 C2

[ 255]     4958.976 ms | NAV-PVT         | Len=  92 | mavic4_ansdrone_decoder--251229-151141.txt
       B5 62 01 07 5C 00 28 0A 00 00 E5 07 03 07 00 00 02 F0 FF FF FF FF 00 46 C3 23 00 00 24 00 00 00 00 00 00 00 00 00 00 00 00 00 98 BD FF FF FF FF 
       FF FF 00 78 84 DF 00 00 00 00 00 00 00 00 00 00 00 00 00 00 00 00 00 00 00 00 58 3E 0F 00 80 A8 12 01 0F 27 00 00 5C 40 56 2F 00 00 00 00 00 00 
       00 00 2B F8

[ 256]     4960.061 ms | NAV-POSLLH      | Len=  28 | mavic4_ansdrone_decoder--251229-151141.txt
       B5 62 01 02 1C 00 28 0A 00 00 00 00 00 00 00 00 00 00 00 00 00 00 98 BD FF FF FF FF FF FF 00 78 84 DF 7B 75

[ 257]     4960.451 ms | NAV-VELNED      | Len=  36 | mavic4_ansdrone_decoder--251229-151141.txt
       B5 62 01 12 24 00 28 0A 00 00 00 00 00 00 00 00 00 00 00 00 00 00 00 00 00 00 00 00 00 00 00 00 00 00 3C 86 01 00 80 A8 12 01 67 E9

[ 258]     4960.929 ms | NAV-SAT         | Len=   8 | mavic4_ansdrone_decoder--251229-151141.txt
       B5 62 01 35 08 00 28 0A 00 00 01 00 00 00 71 2D

[ 259]     4961.102 ms | NAV-STATUS      | Len=  16 | mavic4_ansdrone_decoder--251229-151141.txt
       B5 62 01 03 10 00 28 0A 00 00 00 40 00 08 00 00 00 00 3C 0A 00 00 D4 99

[ 260]     4961.363 ms | NAV-DOP         | Len=  18 | mavic4_ansdrone_decoder--251229-151141.txt
       B5 62 01 04 12 00 28 0A 00 00 0F 27 0F 27 0F 27 0F 27 0F 27 0F 27 0F 27 C3 0B

[ 261]     4961.645 ms | NAV-TIMEGPS     | Len=  16 | mavic4_ansdrone_decoder--251229-151141.txt
       B5 62 01 20 10 00 28 0A 00 00 00 00 00 00 00 00 12 00 FF FF FF FF 71 0C

[ 262]     4961.905 ms | NAV-TIMEUTC     | Len=  20 | mavic4_ansdrone_decoder--251229-151141.txt
       B5 62 01 21 14 00 28 0A 00 00 FF FF FF FF 00 46 C3 23 E5 07 03 07 00 00 02 F0 78 C8

[ 263]     4962.209 ms | NAV-CLOCK       | Len=  20 | mavic4_ansdrone_decoder--251229-151141.txt
       B5 62 01 22 14 00 28 0A 00 00 00 00 00 00 00 00 00 00 FF FF FF FF 7C 36 39 00 50 A6

[ 264]     4962.512 ms | NAV-0x60        | Len=  16 | mavic4_ansdrone_decoder--251229-151141.txt
       B5 62 01 60 10 00 28 0A 00 00 00 00 00 00 00 00 00 00 00 00 00 00 A3 6A

[ 265]     5006.575 ms | SEC-SIGN        | Len= 108 | mavic4_ansdrone_decoder--251229-151141.txt
       B5 62 27 04 6C 00 01 00 70 00 03 1B 45 38 07 B0 89 AA A7 8D 89 78 DB 87 04 7F FC 40 8B 69 65 F9 9B A2 E5 8B 06 EB 50 D3 90 D7 00 00 00 00 00 00 
       00 00 00 00 00 00 00 00 00 00 00 00 00 00 00 00 00 00 FC 31 F5 F9 43 2F D5 6C 72 DF 4A 39 01 1F 6D 2C D1 18 50 40 79 05 AC B6 6B 12 B9 8A 03 0B 
       75 EF 06 24 52 A6 29 B7 57 46 C9 97 31 66 5A EC 58 3E B5 33

[ 266]     5149.380 ms | RXM-0x15        | Len=  16 | mavic4_ansdrone_decoder--251229-151141.txt
       B5 62 02 15 10 00 CD CC CC CC CC CC 04 40 00 00 12 00 00 01 C0 0C 13 D6

[ 267]     5157.963 ms | NAV-PVT         | Len=  92 | mavic4_ansdrone_decoder--251229-151141.txt
       B5 62 01 07 5C 00 F0 0A 00 00 E5 07 03 07 00 00 02 F0 FF FF FF FF 00 08 AF 2F 00 00 24 00 00 00 00 00 00 00 00 00 00 00 00 00 98 BD FF FF FF FF 
       FF FF 00 79 84 DF 00 00 00 00 00 00 00 00 00 00 00 00 00 00 00 00 00 00 00 00 58 3E 0F 00 80 A8 12 01 0F 27 00 00 5C 40 56 2F 00 00 00 00 00 00 
       00 00 AE 81

[ 268]     5159.048 ms | NAV-POSLLH      | Len=  28 | mavic4_ansdrone_decoder--251229-151141.txt
       B5 62 01 02 1C 00 F0 0A 00 00 00 00 00 00 00 00 00 00 00 00 00 00 98 BD FF FF FF FF FF FF 00 79 84 DF 44 58

[ 269]     5159.438 ms | NAV-VELNED      | Len=  36 | mavic4_ansdrone_decoder--251229-151141.txt
       B5 62 01 12 24 00 F0 0A 00 00 00 00 00 00 00 00 00 00 00 00 00 00 00 00 00 00 00 00 00 00 00 00 00 00 3C 86 01 00 80 A8 12 01 2F 09

[ 270]     5159.916 ms | NAV-SAT         | Len=   8 | mavic4_ansdrone_decoder--251229-151141.txt
       B5 62 01 35 08 00 F0 0A 00 00 01 00 00 00 39 6D

[ 271]     5160.089 ms | NAV-STATUS      | Len=  16 | mavic4_ansdrone_decoder--251229-151141.txt
       B5 62 01 03 10 00 F0 0A 00 00 00 40 00 08 00 00 00 00 04 0B 00 00 65 3C

[ 272]     5160.349 ms | NAV-DOP         | Len=  18 | mavic4_ansdrone_decoder--251229-151141.txt
       B5 62 01 04 12 00 F0 0A 00 00 0F 27 0F 27 0F 27 0F 27 0F 27 0F 27 0F 27 8B 1B

[ 273]     5160.631 ms | NAV-TIMEGPS     | Len=  16 | mavic4_ansdrone_decoder--251229-151141.txt
       B5 62 01 20 10 00 F0 0A 00 00 00 00 00 00 00 00 12 00 FF FF FF FF 39 8C

[ 274]     5160.892 ms | NAV-TIMEUTC     | Len=  20 | mavic4_ansdrone_decoder--251229-151141.txt
       B5 62 01 21 14 00 F0 0A 00 00 FF FF FF FF 00 08 AF 2F E5 07 03 07 00 00 02 F0 FA 62

[ 275]     5161.196 ms | NAV-CLOCK       | Len=  20 | mavic4_ansdrone_decoder--251229-151141.txt
       B5 62 01 22 14 00 F0 0A 00 00 00 00 00 00 00 00 00 00 FF FF FF FF 7C 36 39 00 18 46

[ 276]     5161.499 ms | NAV-0x60        | Len=  16 | mavic4_ansdrone_decoder--251229-151141.txt
       B5 62 01 60 10 00 F0 0A 00 00 00 00 00 00 00 00 00 00 00 00 00 00 6B EA

[ 277]     5349.343 ms | RXM-0x15        | Len=  16 | mavic4_ansdrone_decoder--251229-151141.txt
       B5 62 02 15 10 00 67 66 66 66 66 66 06 40 00 00 12 00 00 01 88 0D 7A 35

[ 278]     5357.327 ms | NAV-PVT         | Len=  92 | mavic4_ansdrone_decoder--251229-151141.txt
       B5 62 01 07 5C 00 B8 0B 00 00 E5 07 03 07 00 00 03 F0 FF FF FF FF 00 00 00 00 00 00 24 00 00 00 00 00 00 00 00 00 00 00 00 00 98 BD FF FF FF FF 
       FF FF 00 7A 84 DF 00 00 00 00 00 00 00 00 00 00 00 00 00 00 00 00 00 00 00 00 58 3E 0F 00 80 A8 12 01 0F 27 00 00 5C 40 56 2F 00 00 00 00 00 00 
       00 00 93 E8

[ 279]     5358.411 ms | NAV-POSLLH      | Len=  28 | mavic4_ansdrone_decoder--251229-151141.txt
       B5 62 01 02 1C 00 B8 0B 00 00 00 00 00 00 00 00 00 00 00 00 00 00 98 BD FF FF FF FF FF FF 00 7A 84 DF 0E 56

[ 280]     5358.802 ms | NAV-VELNED      | Len=  36 | mavic4_ansdrone_decoder--251229-151141.txt
       B5 62 01 12 24 00 B8 0B 00 00 00 00 00 00 00 00 00 00 00 00 00 00 00 00 00 00 00 00 00 00 00 00 00 00 3C 86 01 00 80 A8 12 01 F8 4C

[ 281]     5359.279 ms | NAV-SAT         | Len=   8 | mavic4_ansdrone_decoder--251229-151141.txt
       B5 62 01 35 08 00 B8 0B 00 00 01 00 00 00 02 B4

[ 282]     5359.453 ms | NAV-STATUS      | Len=  16 | mavic4_ansdrone_decoder--251229-151141.txt
       B5 62 01 03 10 00 B8 0B 00 00 00 40 00 08 00 00 00 00 CC 0B 00 00 F6 EB

[ 283]     5359.713 ms | NAV-DOP         | Len=  18 | mavic4_ansdrone_decoder--251229-151141.txt
       B5 62 01 04 12 00 B8 0B 00 00 0F 27 0F 27 0F 27 0F 27 0F 27 0F 27 0F 27 54 3C

[ 284]     5359.995 ms | NAV-TIMEGPS     | Len=  16 | mavic4_ansdrone_decoder--251229-151141.txt
       B5 62 01 20 10 00 B8 0B 00 00 00 00 00 00 00 00 12 00 FF FF FF FF 02 1B

[ 285]     5360.255 ms | NAV-TIMEUTC     | Len=  20 | mavic4_ansdrone_decoder--251229-151141.txt
       B5 62 01 21 14 00 B8 0B 00 00 FF FF FF FF 00 00 00 00 E5 07 03 07 00 00 03 F0 DE 42

[ 286]     5360.559 ms | NAV-CLOCK       | Len=  20 | mavic4_ansdrone_decoder--251229-151141.txt
       B5 62 01 22 14 00 B8 0B 00 00 00 00 00 00 00 00 00 00 FF FF FF FF 7C 36 39 00 E1 F9

[ 287]     5360.863 ms | NAV-0x60        | Len=  16 | mavic4_ansdrone_decoder--251229-151141.txt
       B5 62 01 60 10 00 B8 0B 00 00 00 00 00 00 00 00 00 00 00 00 00 00 34 79

[ 288]     5549.353 ms | RXM-0x15        | Len=  16 | mavic4_ansdrone_decoder--251229-151141.txt
       B5 62 02 15 10 00 00 00 00 00 00 00 08 40 00 00 12 00 00 01 50 0E E0 84

[ 289]     5557.241 ms | NAV-PVT         | Len=  92 | mavic4_ansdrone_decoder--251229-151141.txt
       B5 62 01 07 5C 00 80 0C 00 00 E5 07 03 07 00 00 03 F0 FF FF FF FF 00 C2 EB 0B 00 00 24 00 00 00 00 00 00 00 00 00 00 00 00 00 98 BD FF FF FF FF 
       FF FF 00 7B 84 DF 00 00 00 00 00 00 00 00 00 00 00 00 00 00 00 00 00 00 00 00 58 3E 0F 00 80 A8 12 01 0F 27 00 00 5C 40 56 2F 00 00 00 00 00 00 
       00 00 15 39

[ 290]     5558.326 ms | NAV-POSLLH      | Len=  28 | mavic4_ansdrone_decoder--251229-151141.txt
       B5 62 01 02 1C 00 80 0C 00 00 00 00 00 00 00 00 00 00 00 00 00 00 98 BD FF FF FF FF FF FF 00 7B 84 DF D8 54

[ 291]     5558.717 ms | NAV-VELNED      | Len=  36 | mavic4_ansdrone_decoder--251229-151141.txt
       B5 62 01 12 24 00 80 0C 00 00 00 00 00 00 00 00 00 00 00 00 00 00 00 00 00 00 00 00 00 00 00 00 00 00 3C 86 01 00 80 A8 12 01 C1 8F

[ 292]     5559.194 ms | NAV-SAT         | Len=   8 | mavic4_ansdrone_decoder--251229-151141.txt
       B5 62 01 35 08 00 80 0C 00 00 01 00 00 00 CB FB

[ 293]     5559.368 ms | NAV-STATUS      | Len=  16 | mavic4_ansdrone_decoder--251229-151141.txt
       B5 62 01 03 10 00 80 0C 00 00 00 40 00 08 00 00 00 00 94 0C 00 00 88 9D

[ 294]     5559.628 ms | NAV-DOP         | Len=  18 | mavic4_ansdrone_decoder--251229-151141.txt
       B5 62 01 04 12 00 80 0C 00 00 0F 27 0F 27 0F 27 0F 27 0F 27 0F 27 0F 27 1D 5D

[ 295]     5559.910 ms | NAV-TIMEGPS     | Len=  16 | mavic4_ansdrone_decoder--251229-151141.txt
       B5 62 01 20 10 00 80 0C 00 00 00 00 00 00 00 00 12 00 FF FF FF FF CB AA

[ 296]     5560.170 ms | NAV-TIMEUTC     | Len=  20 | mavic4_ansdrone_decoder--251229-151141.txt
       B5 62 01 21 14 00 80 0C 00 00 FF FF FF FF 00 C2 EB 0B E5 07 03 07 00 00 03 F0 5F DC

[ 297]     5560.474 ms | NAV-CLOCK       | Len=  20 | mavic4_ansdrone_decoder--251229-151141.txt
       B5 62 01 22 14 00 80 0C 00 00 00 00 00 00 00 00 00 00 FF FF FF FF 7C 36 39 00 AA AC

[ 298]     5560.778 ms | NAV-0x60        | Len=  16 | mavic4_ansdrone_decoder--251229-151141.txt
       B5 62 01 60 10 00 80 0C 00 00 00 00 00 00 00 00 00 00 00 00 00 00 FD 08

[ 299]     5749.329 ms | RXM-0x15        | Len=  16 | mavic4_ansdrone_decoder--251229-151141.txt
       B5 62 02 15 10 00 9A 99 99 99 99 99 09 40 00 00 12 00 00 01 18 0F 41 98

[ 300]     5756.626 ms | NAV-PVT         | Len=  92 | mavic4_ansdrone_decoder--251229-151141.txt
       B5 62 01 07 5C 00 48 0D 00 00 E5 07 03 07 00 00 03 F0 FF FF FF FF FF 83 D7 17 00 00 24 00 00 00 00 00 00 00 00 00 00 00 00 00 98 BD FF FF FF FF 
       FF FF 00 7B 84 DF 00 00 00 00 00 00 00 00 00 00 00 00 00 00 00 00 00 00 00 00 58 3E 0F 00 80 A8 12 01 0F 27 00 00 5C 40 56 2F 00 00 00 00 00 00 
       00 00 96 57

[ 301]     5757.710 ms | NAV-POSLLH      | Len=  28 | mavic4_ansdrone_decoder--251229-151141.txt
       B5 62 01 02 1C 00 48 0D 00 00 00 00 00 00 00 00 00 00 00 00 00 00 98 BD FF FF FF FF FF FF 00 7B 84 DF A1 4F

[ 302]     5758.101 ms | NAV-VELNED      | Len=  36 | mavic4_ansdrone_decoder--251229-151141.txt
       B5 62 01 12 24 00 48 0D 00 00 00 00 00 00 00 00 00 00 00 00 00 00 00 00 00 00 00 00 00 00 00 00 00 00 3C 86 01 00 80 A8 12 01 8A D2

[ 303]     5758.578 ms | NAV-SAT         | Len=   8 | mavic4_ansdrone_decoder--251229-151141.txt
       B5 62 01 35 08 00 48 0D 00 00 01 00 00 00 94 42

